{
  "paris": {
    "id": "paris",
    "name": "Parigi",
    "region": "Ile-de-France",
    "lat": 48.8566,
    "lng": 2.3522,
    "desc": "Centro politico francese. Visibilita altissima e pressione costante.",
    "bonus": { "reputazione": 2, "networking": 18, "intelligenza": 1 },
    "malus": { "stress": 4, "concorrenza": 0.88 },
    "rentMultiplier": 1.7,
    "salaryMultiplier": 1.6,
    "startingMoney": 150,
    "tier": 1,
    "settlementType": "city",
    "population": "large"
  },
  "marseille": {
    "id": "marseille",
    "name": "Marsiglia",
    "region": "Provence-Alpes-Cote d'Azur",
    "lat": 43.2965,
    "lng": 5.3698,
    "desc": "Grande porto, tensioni sociali e alta visibilita locale.",
    "bonus": { "reputazione": 3, "networking": 14 },
    "malus": { "stress": 3, "concorrenza": 0.85 },
    "rentMultiplier": 1.0,
    "salaryMultiplier": 0.95,
    "startingMoney": 90,
    "tier": 2,
    "settlementType": "city",
    "population": "large"
  },
  "lyon": {
    "id": "lyon",
    "name": "Lione",
    "region": "Auvergne-Rhone-Alpes",
    "lat": 45.7640,
    "lng": 4.8357,
    "desc": "Reti forti e buona stabilita amministrativa.",
    "bonus": { "reputazione": 1, "networking": 12 },
    "malus": { "stress": 2, "concorrenza": 0.9 },
    "rentMultiplier": 1.2,
    "salaryMultiplier": 1.15,
    "startingMoney": 100,
    "tier": 2,
    "settlementType": "city",
    "population": "medium"
  },
  "toulouse": {
    "id": "toulouse",
    "name": "Tolosa",
    "region": "Occitanie",
    "lat": 43.6047,
    "lng": 1.4442,
    "desc": "Aerospazio e universita. Tecnologia e ricerca.",
    "bonus": { "reputazione": 1, "networking": 10, "intelligenza": 2 },
    "malus": { "stress": 1, "concorrenza": 0.92 },
    "rentMultiplier": 1.0,
    "salaryMultiplier": 1.05,
    "startingMoney": 95,
    "tier": 2,
    "settlementType": "city",
    "population": "medium"
  },
  "nice": {
    "id": "nice",
    "name": "Nizza",
    "region": "Provence-Alpes-Cote d'Azur",
    "lat": 43.7102,
    "lng": 7.2620,
    "desc": "Turismo e influenza italiana. Costa cara.",
    "bonus": { "reputazione": 2, "networking": 8 },
    "malus": { "stress": 2, "concorrenza": 0.88 },
    "rentMultiplier": 1.3,
    "salaryMultiplier": 1.1,
    "startingMoney": 110,
    "tier": 2,
    "settlementType": "city",
    "population": "medium"
  },
  "nantes": {
    "id": "nantes",
    "name": "Nantes",
    "region": "Pays de la Loire",
    "lat": 47.2184,
    "lng": -1.5536,
    "desc": "Citta verde, dinamica culturale.",
    "bonus": { "reputazione": 2, "networking": 9, "morale": 3 },
    "malus": { "stress": 1, "concorrenza": 0.9 },
    "rentMultiplier": 0.95,
    "salaryMultiplier": 0.98,
    "startingMoney": 85,
    "tier": 3,
    "settlementType": "municipality",
    "population": "medium"
  },
  "strasbourg": {
    "id": "strasbourg",
    "name": "Strasburgo",
    "region": "Grand Est",
    "lat": 48.5734,
    "lng": 7.7521,
    "desc": "Sede del Parlamento Europeo. Carriera internazionale.",
    "bonus": { "reputazione": 3, "reputazioneNazionale": 4 },
    "malus": { "stress": 2, "concorrenza": 0.85 },
    "rentMultiplier": 1.1,
    "salaryMultiplier": 1.2,
    "startingMoney": 120,
    "tier": 2,
    "settlementType": "city",
    "population": "large"
  },
  "bordeaux": {
    "id": "bordeaux",
    "name": "Bordeaux",
    "region": "Nouvelle-Aquitaine",
    "lat": 44.8378,
    "lng": -0.5792,
    "desc": "Vigneti e immobiliare. Qualita della vita.",
    "bonus": { "reputazione": 1, "networking": 11 },
    "malus": { "stress": 1, "concorrenza": 0.91 },
    "rentMultiplier": 1.05,
    "salaryMultiplier": 1.02,
    "startingMoney": 95,
    "tier": 3,
    "settlementType": "municipality",
    "population": "medium"
  },
  "lille": {
    "id": "lille",
    "name": "Lilla",
    "region": "Hauts-de-France",
    "lat": 50.6292,
    "lng": 3.0573,
    "desc": "Vicinanza al Belgio, industria in transizione.",
    "bonus": { "reputazione": 1, "networking": 10 },
    "malus": { "stress": 2, "concorrenza": 0.87 },
    "rentMultiplier": 0.9,
    "salaryMultiplier": 0.92,
    "startingMoney": 85,
    "tier": 3,
    "settlementType": "municipality",
    "population": "medium"
  },
  "rennes": {
    "id": "rennes",
    "name": "Rennes",
    "region": "Bretagne",
    "lat": 48.1173,
    "lng": -1.6778,
    "desc": "Universita, start-up, giovane e dinamica.",
    "bonus": { "reputazione": 2, "intelligenza": 1 },
    "malus": { "stress": 1, "concorrenza": 0.93 },
    "rentMultiplier": 0.85,
    "salaryMultiplier": 0.88,
    "startingMoney": 80,
    "tier": 3,
    "settlementType": "municipality",
    "population": "small"
  }
}
