{
  "london": { "id":"london","name":"London","region":"Greater London","lat":51.5074,"lng":-0.1278,"desc":"Global city, immense cost of living, brutal politics.","bonus":{"reputazione":3,"networking":20,"money":12},"malus":{"stress":5,"concorrenza":0.78},"rentMultiplier":1.9,"salaryMultiplier":1.65,"startingMoney":180,"tier":1 },
  "manchester": { "id":"manchester","name":"Manchester","region":"North West","lat":53.4808,"lng":-2.2426,"desc":"Industrial heritage, creative scene, affordable.","bonus":{"reputazione":2,"networking":14},"malus":{"stress":2,"concorrenza":0.85},"rentMultiplier":1.2,"salaryMultiplier":1.15,"startingMoney":100,"tier":2 },
  "birmingham": { "id":"birmingham","name":"Birmingham","region":"West Midlands","lat":52.4862,"lng":-1.8904,"desc":"Second city, multicultural, transport hub.","bonus":{"reputazione":1,"networking":12},"malus":{"stress":2,"concorrenza":0.88},"rentMultiplier":1.0,"salaryMultiplier":1.0,"startingMoney":90,"tier":2 },
  "glasgow": { "id":"glasgow","name":"Glasgow","region":"Scotland","lat":55.8642,"lng":-4.2518,"desc":"Scottish energy, working class roots, friendly.","bonus":{"reputazione":2,"networking":11,"morale":2},"malus":{"stress":2,"concorrenza":0.86},"rentMultiplier":0.85,"salaryMultiplier":0.9,"startingMoney":80,"tier":3 },
  "leeds": { "id":"leeds","name":"Leeds","region":"Yorkshire","lat":53.8008,"lng":-1.5491,"desc":"Financial services, vibrant nightlife, strong identity.","bonus":{"reputazione":1,"networking":10},"malus":{"stress":1,"concorrenza":0.9},"rentMultiplier":0.9,"salaryMultiplier":0.95,"startingMoney":85,"tier":3 },
  "liverpool": { "id":"liverpool","name":"Liverpool","region":"North West","lat":53.4084,"lng":-2.9916,"desc":"Music, docks, strong local pride.","bonus":{"reputazione":2,"networking":9,"carisma":2},"malus":{"stress":1,"concorrenza":0.87},"rentMultiplier":0.85,"salaryMultiplier":0.88,"startingMoney":80,"tier":3 },
  "bristol": { "id":"bristol","name":"Bristol","region":"South West","lat":51.4545,"lng":-2.5879,"desc":"Green, creative, independent, vibrant.","bonus":{"reputazione":2,"networking":11,"autenticita":2},"malus":{"stress":1,"concorrenza":0.91},"rentMultiplier":1.05,"salaryMultiplier":1.02,"startingMoney":95,"tier":3 },
  "newcastle": { "id":"newcastle","name":"Newcastle","region":"North East","lat":54.9783,"lng":-1.6178,"desc":"Friendly, affordable, post-industrial revival.","bonus":{"reputazione":1,"networking":8},"malus":{"stress":1,"concorrenza":0.88},"rentMultiplier":0.75,"salaryMultiplier":0.8,"startingMoney":75,"tier":3 },
  "sheffield": { "id":"sheffield","name":"Sheffield","region":"Yorkshire","lat":53.3811,"lng":-1.4701,"desc":"Steel city, greenest in UK, outdoor culture.","bonus":{"reputazione":1,"networking":7,"salute":2},"malus":{"stress":1,"concorrenza":0.89},"rentMultiplier":0.8,"salaryMultiplier":0.82,"startingMoney":78,"tier":3 },
  "cardiff": { "id":"cardiff","name":"Cardiff","region":"Wales","lat":51.4816,"lng":-3.1791,"desc":"Welsh capital, devolved politics, castle.","bonus":{"reputazione":2,"networking":9},"malus":{"stress":1,"concorrenza":0.87},"rentMultiplier":0.85,"salaryMultiplier":0.88,"startingMoney":80,"tier":3 },
  "edinburgh": { "id":"edinburgh","name":"Edinburgh","region":"Scotland","lat":55.9533,"lng":-3.1883,"desc":"Scottish Parliament, festivals, finance, historic.","bonus":{"reputazione":2,"networking":13,"intelligenza":1},"malus":{"stress":2,"concorrenza":0.85},"rentMultiplier":1.3,"salaryMultiplier":1.2,"startingMoney":110,"tier":2 },
  "belfast": { "id":"belfast","name":"Belfast","region":"Northern Ireland","lat":54.5973,"lng":-5.9301,"desc":"Troubles legacy, shipbuilding, emerging tech.","bonus":{"reputazione":2,"networking":10},"malus":{"stress":3,"concorrenza":0.83},"rentMultiplier":0.8,"salaryMultiplier":0.85,"startingMoney":80,"tier":3 },
  "southampton": { "id":"southampton","name":"Southampton","region":"South East","lat":50.9097,"lng":-1.4044,"desc":"Port city, cruise industry, university.","bonus":{"reputazione":1,"networking":9},"malus":{"stress":1,"concorrenza":0.9},"rentMultiplier":0.95,"salaryMultiplier":0.96,"startingMoney":88,"tier":3 },
  "portsmouth": { "id":"portsmouth","name":"Portsmouth","region":"South East","lat":50.8198,"lng":-1.0880,"desc":"Naval base, compact city.","bonus":{"reputazione":1,"networking":8},"malus":{"stress":2,"concorrenza":0.88},"rentMultiplier":0.9,"salaryMultiplier":0.92,"startingMoney":85,"tier":3 },
  "leicester": { "id":"leicester","name":"Leicester","region":"East Midlands","lat":52.6369,"lng":-1.1398,"desc":"Multicultural, manufacturing, football.","bonus":{"reputazione":1,"networking":8},"malus":{"stress":1,"concorrenza":0.91},"rentMultiplier":0.82,"salaryMultiplier":0.85,"startingMoney":80,"tier":3 },
  "coventry": { "id":"coventry","name":"Coventry","region":"West Midlands","lat":52.4068,"lng":-1.5197,"desc":"Motor industry history, cathedral.","bonus":{"reputazione":1,"networking":7},"malus":{"stress":1,"concorrenza":0.9},"rentMultiplier":0.8,"salaryMultiplier":0.83,"startingMoney":78,"tier":3 },
  "nottingham": { "id":"nottingham","name":"Nottingham","region":"East Midlands","lat":52.9548,"lng":-1.1581,"desc":"Robin Hood, lace market, two universities.","bonus":{"reputazione":1,"networking":8,"intelligenza":1},"malus":{"stress":1,"concorrenza":0.89},"rentMultiplier":0.85,"salaryMultiplier":0.87,"startingMoney":82,"tier":3 },
  "kingston": { "id":"kingston","name":"Kingston upon Hull","region":"Yorkshire","lat":53.7676,"lng":-0.3274,"desc":"Port, City of Culture 2017, affordable.","bonus":{"reputazione":1,"networking":6},"malus":{"stress":1,"concorrenza":0.85},"rentMultiplier":0.7,"salaryMultiplier":0.75,"startingMoney":70,"tier":3 },
  "plymouth": { "id":"plymouth","name":"Plymouth","region":"South West","lat":50.3755,"lng":-4.1427,"desc":"Naval base, ocean city.","bonus":{"reputazione":1,"networking":7},"malus":{"stress":1,"concorrenza":0.88},"rentMultiplier":0.78,"salaryMultiplier":0.8,"startingMoney":75,"tier":3 },
  "aberdeen": { "id":"aberdeen","name":"Aberdeen","region":"Scotland","lat":57.1497,"lng":-2.0943,"desc":"Oil capital, granite city.","bonus":{"reputazione":1,"networking":10,"money":15},"malus":{"stress":2,"concorrenza":0.84},"rentMultiplier":1.0,"salaryMultiplier":1.05,"startingMoney":100,"tier":3 }
}
